{
  "type": "FeatureCollection",
  "features": [
    {
      "type": "Feature",
      "properties": {
        "title": "All Saints (St. Peters)",
        "link": "https://www.archstl.org/parish-directory/all-saints-st-peters",
        "phone": "636.397.1440",
        "address": "7 McMenamy Rd., St. Peters, MO 63376-1590"
      },
      "geometry": {
        "type": "Point",
        "coordinates": [
          -90.628541,
          38.796705
        ]
      }
    },
    {
      "type": "Feature",
      "properties": {
        "title": "All Saints (University City)",
        "link": "https://www.archstl.org/parish-directory/all-saints-university-city",
        "phone": "314.721.6403",
        "address": "6403 Clemens Ave., St. Louis, MO 63130-3497"
      },
      "geometry": {
        "type": "Point",
        "coordinates": [
          -90.303457,
          38.659258
        ]
      }
    },
    {
      "type": "Feature",
      "properties": {
        "title": "All Souls (Overland)",
        "link": "https://www.archstl.org/parish-directory/all-souls-overland",
        "phone": "314.427.0442",
        "address": "9550 Tennyson Ave., St. Louis, MO 63114-3399"
      },
      "geometry": {
        "type": "Point",
        "coordinates": [
          -90.36647,
          38.704076
        ]
      }
    },
    {
      "type": "Feature",
      "properties": {
        "title": "Annunciation (Webster Groves)",
        "link": "https://www.archstl.org/parish-directory/annunciation-webster-groves",
        "phone": "314.962.5955",
        "address": "12 W. Glendale Rd., Webster Groves, MO 63119-4097"
      },
      "geometry": {
        "type": "Point",
        "coordinates": [
          -90.359319,
          38.57611
        ]
      }
    },
    {
      "type": "Feature",
      "properties": {
        "title": "Annunziata, Church of the (Ladue)",
        "link": "https://www.archstl.org/parish-directory/annunziata-church-of-the-ladue",
        "phone": "314.993.4422",
        "address": "9305 Clayton Rd., St. Louis, MO 63124-1692"
      },
      "geometry": {
        "type": "Point",
        "coordinates": [
          -90.374272,
          38.64161
        ]
      }
    },
    {
      "type": "Feature",
      "properties": {
        "title": "Ascension (Chesterfield)",
        "link": "https://www.archstl.org/parish-directory/ascension-chesterfield",
        "phone": "636.532.3304",
        "address": "230 Santa Maria Dr., Chesterfield, MO 63005-1600"
      },
      "geometry": {
        "type": "Point",
        "coordinates": [
          -90.579451,
          38.661654
        ]
      }
    },
    {
      "type": "Feature",
      "properties": {
        "title": "Assumption (Mattese)",
        "link": "https://www.archstl.org/parish-directory/assumption-mattese",
        "phone": "314.487.7970",
        "address": "4725 Mattis Rd., St. Louis, MO 63128-2821"
      },
      "geometry": {
        "type": "Point",
        "coordinates": [
          -90.361183,
          38.501019
        ]
      }
    },
    {
      "type": "Feature",
      "properties": {
        "title": "Assumption (New Haven)",
        "link": "https://www.archstl.org/parish-directory/assumption-new-haven",
        "phone": "573.237.3372",
        "address": "603 Miller St., New Haven, MO 63068-1116"
      },
      "geometry": {
        "type": "Point",
        "coordinates": [
          -91.217398,
          38.606688
        ]
      }
    },
    {
      "type": "Feature",
      "properties": {
        "title": "Assumption (O'Fallon)",
        "link": "https://www.archstl.org/parish-directory/assumption-ofallon",
        "phone": "636.240.3721",
        "address": "403 N. Main St., O'Fallon, MO 63366-2205"
      },
      "geometry": {
        "type": "Point",
        "coordinates": [
          -90.700486,
          38.813503
        ]
      }
    },
    {
      "type": "Feature",
      "properties": {
        "title": "Basilica of St. Louis, King of France",
        "link": "https://www.archstl.org/parish-directory/basilica-of-st-louis-king-of-france",
        "phone": "314.231.3250",
        "address": "209 Walnut St., St. Louis, MO 63102-2499"
      },
      "geometry": {
        "type": "Point",
        "coordinates": [
          -90.186988,
          38.624156
        ]
      }
    },
    {
      "type": "Feature",
      "properties": {
        "title": "Blessed Teresa of Calcutta (Ferguson)",
        "link": "https://www.archstl.org/parish-directory/blessed-teresa-of-calcutta-ferguson",
        "phone": "314.524.0500",
        "address": "120 N. Elizabeth Ave, St. Louis, MO 63135-1346"
      },
      "geometry": {
        "type": "Point",
        "coordinates": [
          -90.298704,
          38.748107
        ]
      }
    },
    {
      "type": "Feature",
      "properties": {
        "title": "Cathedral Basilica of Saint Louis",
        "link": "https://www.archstl.org/parish-directory/cathedral-basilica-of-saint-louis",
        "phone": "314.373.8200",
        "address": "4431 Lindell Blvd., St. Louis, MO 63108-2496"
      },
      "geometry": {
        "type": "Point",
        "coordinates": [
          -90.254922,
          38.642295
        ]
      }
    },
    {
      "type": "Feature",
      "properties": {
        "title": "Christ the King (University City)",
        "link": "https://www.archstl.org/parish-directory/christ-the-king-university-city",
        "phone": "314.721.8737",
        "address": "7316 Balson Ave., St. Louis, MO 63130-2999"
      },
      "geometry": {
        "type": "Point",
        "coordinates": [
          -90.325746,
          38.663502
        ]
      }
    },
    {
      "type": "Feature",
      "properties": {
        "title": "Christ the Savior (Brewer)",
        "link": "https://www.archstl.org/parish-directory/christ-the-savior-brewer",
        "phone": "573.547.4300",
        "address": "57 Shady Ln., Perryville, MO 63775-7386"
      },
      "geometry": {
        "type": "Point",
        "coordinates": [
          -89.926465,
          37.780721
        ]
      }
    },
    {
      "type": "Feature",
      "properties": {
        "title": "Christ, Prince of Peace (Manchester)",
        "link": "https://www.archstl.org/parish-directory/christ-prince-of-peace-manchester",
        "phone": "636.391.1307",
        "address": "415 Weidman Rd., Manchester, MO 63011-4431"
      },
      "geometry": {
        "type": "Point",
        "coordinates": [
          -90.494122,
          38.599683
        ]
      }
    },
    {
      "type": "Feature",
      "properties": {
        "title": "Cure of Ars (Shrewsbury)",
        "link": "https://www.archstl.org/parish-directory/cur-of-ars-shrewsbury",
        "phone": "314.962.5883",
        "address": "670 S. Laclede Station Rd., St. Louis, MO 63119-4910"
      },
      "geometry": {
        "type": "Point",
        "coordinates": [
          -90.335976,
          38.576686
        ]
      }
    },
    {
      "type": "Feature",
      "properties": {
        "title": "Epiphany of Our Lord (St. Louis)",
        "link": "https://www.archstl.org/parish-directory/epiphany-of-our-lord-st-louis",
        "phone": "314.781.1199",
        "address": "6596 Smiley Ave., St. Louis, MO 63139-2487"
      },
      "geometry": {
        "type": "Point",
        "coordinates": [
          -90.302476,
          38.606649
        ]
      }
    },
    {
      "type": "Feature",
      "properties": {
        "title": "Good Shepherd, Church of the (Hillsboro)",
        "link": "https://www.archstl.org/parish-directory/good-shepherd-church-of-the-hillsboro",
        "phone": "636.789.3356",
        "address": "703 Third St., Hillsboro, MO 63050-4342"
      },
      "geometry": {
        "type": "Point",
        "coordinates": [
          -90.567604,
          38.233726
        ]
      }
    },
    {
      "type": "Feature",
      "properties": {
        "title": "Holy Family (Port Hudson)",
        "link": "https://www.archstl.org/parish-directory/holy-family-port-hudson",
        "phone": "573.459.6441",
        "address": "124 Holy Family Church Rd., New Haven, MO 63068-2664"
      },
      "geometry": {
        "type": "Point",
        "coordinates": [
          -91.234522,
          38.496416
        ]
      }
    },
    {
      "type": "Feature",
      "properties": {
        "title": "Holy Infant (Ballwin)",
        "link": "https://www.archstl.org/parish-directory/holy-infant-ballwin",
        "phone": "636.227.7440",
        "address": "627 Dennison Dr., Ballwin, MO 63021-4898"
      },
      "geometry": {
        "type": "Point",
        "coordinates": [
          -90.556389,
          38.583912
        ]
      }
    },
    {
      "type": "Feature",
      "properties": {
        "title": "Holy Martyrs of Japan, Church of the (Japan)",
        "link": "https://www.archstl.org/parish-directory/holy-martyrs-of-japan-church-of-the-japan",
        "phone": "573.627.3378",
        "address": "8244 Highway AE, Sullivan, MO 63080-3229"
      },
      "geometry": {
        "type": "Point",
        "coordinates": [
          -91.16042,
          38.2081
        ]
      }
    },
    {
      "type": "Feature",
      "properties": {
        "title": "Holy Name of Jesus (Bissell Hills)",
        "link": "https://www.archstl.org/parish-directory/holy-name-of-jesus-bissell-hills",
        "phone": "314.868.2310",
        "address": "10235 Ashbrook Dr., St. Louis, MO 63137-1598"
      },
      "geometry": {
        "type": "Point",
        "coordinates": [
          -90.231461,
          38.75624
        ]
      }
    },
    {
      "type": "Feature",
      "properties": {
        "title": "Holy Redeemer (Webster Groves)",
        "link": "https://www.archstl.org/parish-directory/holy-redeemer-webster-groves",
        "phone": "314.962.0038",
        "address": "17 Joy Ave., St. Louis, MO 63119-2599"
      },
      "geometry": {
        "type": "Point",
        "coordinates": [
          -90.348084,
          38.59223
        ]
      }
    },
    {
      "type": "Feature",
      "properties": {
        "title": "Holy Rosary (Warrenton)",
        "link": "https://www.archstl.org/parish-directory/holy-rosary-warrenton",
        "phone": "636.456.3698",
        "address": "724 E. Booneslick Rd., Warrenton, MO 63383-2216"
      },
      "geometry": {
        "type": "Point",
        "coordinates": [
          -91.136147,
          38.812041
        ]
      }
    },
    {
      "type": "Feature",
      "properties": {
        "title": "Holy Spirit (Maryland Heights)",
        "link": "https://www.archstl.org/parish-directory/holy-spirit-maryland-heights",
        "phone": "314.739.0230",
        "address": "3130 Parkwood Ln., Maryland Heights, MO 63043-1396"
      },
      "geometry": {
        "type": "Point",
        "coordinates": [
          -90.432349,
          38.734543
        ]
      }
    },
    {
      "type": "Feature",
      "properties": {
        "title": "Immacolata (Richmond Heights)",
        "link": "https://www.archstl.org/parish-directory/immacolata-richmond-heights",
        "phone": "314.991.5700",
        "address": "8900 Clayton Rd., St. Louis, MO 63117-1093"
      },
      "geometry": {
        "type": "Point",
        "coordinates": [
          -90.350611,
          38.638178
        ]
      }
    },
    {
      "type": "Feature",
      "properties": {
        "title": "Immaculate Conception (Arnold)",
        "link": "https://www.archstl.org/parish-directory/immaculate-conception-arnold",
        "phone": "636.321.0002",
        "address": "2300 Church Rd., Arnold, MO 63010-2110"
      },
      "geometry": {
        "type": "Point",
        "coordinates": [
          -90.379596,
          38.434706
        ]
      }
    },
    {
      "type": "Feature",
      "properties": {
        "title": "Immaculate Conception (Augusta)",
        "link": "https://www.archstl.org/parish-directory/immaculate-conception-augusta",
        "phone": "636.482.4455",
        "address": "5912 S. Highway 94, Augusta, MO 63332-1604"
      },
      "geometry": {
        "type": "Point",
        "coordinates": [
          -90.900789,
          38.582619
        ]
      }
    },
    {
      "type": "Feature",
      "properties": {
        "title": "Immaculate Conception (Dardenne Prairie)",
        "link": "https://www.archstl.org/parish-directory/immaculate-conception-dardenne-prairie",
        "phone": "636.561.6611",
        "address": "7701 Town Square Ave., Dardenne Prairie, MO 63368-6702"
      },
      "geometry": {
        "type": "Point",
        "coordinates": [
          -90.72902,
          38.7695
        ]
      }
    },
    {
      "type": "Feature",
      "properties": {
        "title": "Immaculate Conception (Maplewood)",
        "link": "https://www.archstl.org/parish-directory/immaculate-conception-maplewood",
        "phone": "314.645.3307",
        "address": "2934 Marshall Ave., St. Louis, MO 63143-3299"
      },
      "geometry": {
        "type": "Point",
        "coordinates": [
          -90.316138,
          38.61121
        ]
      }
    },
    {
      "type": "Feature",
      "properties": {
        "title": "Immaculate Conception (Old Monroe)",
        "link": "https://www.archstl.org/parish-directory/immaculate-conception-old-monroe",
        "phone": "636.661.5002",
        "address": "110 Maryknoll Rd., Old Monroe, MO 63369-2329"
      },
      "geometry": {
        "type": "Point",
        "coordinates": [
          -90.779472,
          38.936739
        ]
      }
    },
    {
      "type": "Feature",
      "properties": {
        "title": "Immaculate Conception (Park Hills)",
        "link": "https://www.archstl.org/parish-directory/immaculate-conception-park-hills",
        "phone": "573.431.2427",
        "address": "1020 W. Main St., P.O. Box 66, Park Hills, MO 63601-0066"
      },
      "geometry": {
        "type": "Point",
        "coordinates": [
          -90.532551,
          37.861223
        ]
      }
    },
    {
      "type": "Feature",
      "properties": {
        "title": "Immaculate Conception (Union)",
        "link": "https://www.archstl.org/parish-directory/immaculate-conception-union",
        "phone": "636.583.5144",
        "address": "100 N. Washington Ave., Union, MO 63084-1692"
      },
      "geometry": {
        "type": "Point",
        "coordinates": [
          -91.008479,
          38.446366
        ]
      }
    },
    {
      "type": "Feature",
      "properties": {
        "title": "Immaculate Heart of Mary (New Melle)",
        "link": "https://www.archstl.org/parish-directory/immaculate-heart-of-mary-new-melle",
        "phone": "636.398.5270",
        "address": "8 W. Highway D, P.O. Box 100, New Melle, MO 63365-0100"
      },
      "geometry": {
        "type": "Point",
        "coordinates": [
          -90.875127,
          38.716287
        ]
      }
    },
    {
      "type": "Feature",
      "properties": {
        "title": "Immaculate Heart of Mary (St. Louis)",
        "link": "https://www.archstl.org/parish-directory/immaculate-heart-of-mary-st-louis",
        "phone": "314.481.7543",
        "address": "4092 Blow St., St. Louis, MO 63116-2796"
      },
      "geometry": {
        "type": "Point",
        "coordinates": [
          -90.276291,
          38.562549
        ]
      }
    },
    {
      "type": "Feature",
      "properties": {
        "title": "Incarnate Word (Chesterfield)",
        "link": "https://www.archstl.org/parish-directory/incarnate-word-chesterfield",
        "phone": "314.576.5366",
        "address": "13416 Olive Blvd., Chesterfield, MO 63017-3196"
      },
      "geometry": {
        "type": "Point",
        "coordinates": [
          -90.496767,
          38.679804
        ]
      }
    },
    {
      "type": "Feature",
      "properties": {
        "title": "Little Flower (Richmond Heights)",
        "link": "https://www.archstl.org/parish-directory/little-flower-richmond-heights",
        "phone": "314.645.1445",
        "address": "1264 Arch Ter., St. Louis, MO 63117-1491"
      },
      "geometry": {
        "type": "Point",
        "coordinates": [
          -90.328067,
          38.630434
        ]
      }
    },
    {
      "type": "Feature",
      "properties": {
        "title": "Mary, Mother of the Church (Mattese)",
        "link": "https://www.archstl.org/parish-directory/mary-mother-of-the-church-mattese",
        "phone": "314.894.1373",
        "address": "5901 Kerth Rd., St. Louis, MO 63128-3705"
      },
      "geometry": {
        "type": "Point",
        "coordinates": [
          -90.374483,
          38.471075
        ]
      }
    },
    {
      "type": "Feature",
      "properties": {
        "title": "Mary, Queen of Peace (Webster Groves)",
        "link": "https://www.archstl.org/parish-directory/mary-queen-of-peace-webster-groves",
        "phone": "314.962.2311",
        "address": "676 W. Lockwood Ave., St. Louis, MO 63119-3597"
      },
      "geometry": {
        "type": "Point",
        "coordinates": [
          -90.375326,
          38.584076
        ]
      }
    },
    {
      "type": "Feature",
      "properties": {
        "title": "Most Holy Trinity (St. Louis)",
        "link": "https://www.archstl.org/parish-directory/most-holy-trinity-st-louis",
        "phone": "314.241.9165",
        "address": "3519 N. Fourteenth St., St. Louis, MO 63107-3796"
      },
      "geometry": {
        "type": "Point",
        "coordinates": [
          -90.212561,
          38.66535
        ]
      }
    },
    {
      "type": "Feature",
      "properties": {
        "title": "Most Sacred Heart (Eureka)",
        "link": "https://www.archstl.org/parish-directory/most-sacred-heart-eureka",
        "phone": "636.938.5048",
        "address": "350 E. Fourth St., Eureka, MO 63025-1949"
      },
      "geometry": {
        "type": "Point",
        "coordinates": [
          -90.620232,
          38.505138
        ]
      }
    },
    {
      "type": "Feature",
      "properties": {
        "title": "Old St. Ferdinand Shrine",
        "link": "https://www.archstl.org/parish-directory/old-st-ferdinand-shrine",
        "phone": "",
        "address": "1 Rue St. Francois, Florissant, MO 63031-6815"
      },
      "geometry": {
        "type": "Point",
        "coordinates": [
          -90.334289,
          38.796493
        ]
      }
    },
    {
      "type": "Feature",
      "properties": {
        "title": "Oratory of Sts. Gregory and Augustine (Richmond Heights)",
        "link": "https://www.archstl.org/parish-directory/oratory-of-sts-gregory-and-augustine-richmond-heights",
        "phone": "314.925.8989",
        "address": "7230 Dale Avenue, St. Louis, MO 63117-2398"
      },
      "geometry": {
        "type": "Point",
        "coordinates": [
          -90.311871,
          38.626988
        ]
      }
    },
    {
      "type": "Feature",
      "properties": {
        "title": "Our Lady (Festus)",
        "link": "https://www.archstl.org/parish-directory/our-lady-festus",
        "phone": "636.931.4702",
        "address": "1550 St. Marys Ln., Festus, MO 63028-1543"
      },
      "geometry": {
        "type": "Point",
        "coordinates": [
          -90.418947,
          38.226603
        ]
      }
    },
    {
      "type": "Feature",
      "properties": {
        "title": "Our Lady Help of Christians (Weingarten)",
        "link": "https://www.archstl.org/parish-directory/our-lady-help-of-christians-weingarten",
        "phone": "573.883.3796",
        "address": "13370 Highway 32, Ste. Genevieve, MO 63670-8304"
      },
      "geometry": {
        "type": "Point",
        "coordinates": [
          -90.110286,
          37.927289
        ]
      }
    },
    {
      "type": "Feature",
      "properties": {
        "title": "Our Lady of Guadalupe (Ferguson)",
        "link": "https://www.archstl.org/parish-directory/our-lady-of-guadalupe-ferguson",
        "phone": "314.522.9264",
        "address": "1115 S. Florissant Rd., St. Louis, MO 63121-1198"
      },
      "geometry": {
        "type": "Point",
        "coordinates": [
          -90.302788,
          38.730097
        ]
      }
    },
    {
      "type": "Feature",
      "properties": {
        "title": "Our Lady of Lourdes (University City)",
        "link": "https://www.archstl.org/parish-directory/our-lady-of-lourdes-university-city",
        "phone": "314.726.6200",
        "address": "7148 Forsyth Blvd., St. Louis, MO 63105-2199"
      },
      "geometry": {
        "type": "Point",
        "coordinates": [
          -90.32086,
          38.64749
        ]
      }
    },
    {
      "type": "Feature",
      "properties": {
        "title": "Our Lady of Lourdes (Washington)",
        "link": "https://www.archstl.org/parish-directory/our-lady-of-lourdes-washington",
        "phone": "636.239.3520",
        "address": "1014 Madison Ave., Washington, MO 63090-4898"
      },
      "geometry": {
        "type": "Point",
        "coordinates": [
          -91.003102,
          38.544684
        ]
      }
    },
    {
      "type": "Feature",
      "properties": {
        "title": "Our Lady of Providence (Crestwood)",
        "link": "https://www.archstl.org/parish-directory/our-lady-of-providence-crestwood",
        "phone": "314.843.3570",
        "address": "8866 Pardee Rd., St. Louis, MO 63123-1096"
      },
      "geometry": {
        "type": "Point",
        "coordinates": [
          -90.358605,
          38.559647
        ]
      }
    },
    {
      "type": "Feature",
      "properties": {
        "title": "Our Lady of Sorrows (St. Louis)",
        "link": "https://www.archstl.org/parish-directory/our-lady-of-sorrows-st-louis",
        "phone": "314.351.1600",
        "address": "5020 Rhodes Ave., St. Louis, MO 63109-3589"
      },
      "geometry": {
        "type": "Point",
        "coordinates": [
          -90.284125,
          38.577717
        ]
      }
    },
    {
      "type": "Feature",
      "properties": {
        "title": "Our Lady of the Holy Cross (St. Louis)",
        "link": "https://www.archstl.org/parish-directory/our-lady-of-the-holy-cross-st-louis",
        "phone": "314.381.0323",
        "address": "8115 Church Rd., St. Louis, MO 63147-1832"
      },
      "geometry": {
        "type": "Point",
        "coordinates": [
          -90.232926,
          38.710609
        ]
      }
    },
    {
      "type": "Feature",
      "properties": {
        "title": "Our Lady of the Pillar (St. Louis)",
        "link": "https://www.archstl.org/parish-directory/our-lady-of-the-pillar-st-louis",
        "phone": "314.993.2280",
        "address": "401 S. Lindbergh Blvd., St. Louis, MO 63131-2729"
      },
      "geometry": {
        "type": "Point",
        "coordinates": [
          -90.405388,
          38.651194
        ]
      }
    },
    {
      "type": "Feature",
      "properties": {
        "title": "Our Lady of the Presentation (Overland)",
        "link": "https://www.archstl.org/parish-directory/our-lady-of-the-presentation-overland",
        "phone": "314.427.0486",
        "address": "8860 Tudor Ave., St. Louis, MO 63114-4998"
      },
      "geometry": {
        "type": "Point",
        "coordinates": [
          -90.350759,
          38.70889
        ]
      }
    },
    {
      "type": "Feature",
      "properties": {
        "title": "Our Lady of Victory (Sereno)",
        "link": "https://www.archstl.org/parish-directory/our-lady-of-victory-sereno",
        "phone": "573.547.4300",
        "address": "172 PCR 920, Perryville, MO 63775-8368"
      },
      "geometry": {
        "type": "Point",
        "coordinates": [
          -89.851391,
          37.797838
        ]
      }
    },
    {
      "type": "Feature",
      "properties": {
        "title": "Our Lady, Queen of Peace (House Springs)",
        "link": "https://www.archstl.org/parish-directory/our-lady-queen-of-peace-house-springs",
        "phone": "636.671.3062",
        "address": "4696 Notre Dame Ln., House Springs, MO 63051-2045"
      },
      "geometry": {
        "type": "Point",
        "coordinates": [
          -90.589091,
          38.405868
        ]
      }
    },
    {
      "type": "Feature",
      "properties": {
        "title": "Queen of All Saints (Oakville)",
        "link": "https://www.archstl.org/parish-directory/queen-of-all-saints-oakville",
        "phone": "314.846.8207",
        "address": "6603 Christopher Dr., St. Louis, MO 63129-4919"
      },
      "geometry": {
        "type": "Point",
        "coordinates": [
          -90.308946,
          38.443758
        ]
      }
    },
    {
      "type": "Feature",
      "properties": {
        "title": "Resurrection of Our Lord (St. Louis)",
        "link": "https://www.archstl.org/parish-directory/resurrection-of-our-lord-st-louis",
        "phone": "314.832.7023",
        "address": "3900 Meramec St., St. Louis, MO 63116-4499"
      },
      "geometry": {
        "type": "Point",
        "coordinates": [
          -90.251722,
          38.584273
        ]
      }
    },
    {
      "type": "Feature",
      "properties": {
        "title": "Sacred Heart (Crystal City)",
        "link": "https://www.archstl.org/parish-directory/sacred-heart-crystal-city",
        "phone": "636.937.4662",
        "address": "555 Bailey Rd., Crystal City, MO 63019-1798"
      },
      "geometry": {
        "type": "Point",
        "coordinates": [
          -90.387971,
          38.219947
        ]
      }
    },
    {
      "type": "Feature",
      "properties": {
        "title": "Sacred Heart (Elsberry)",
        "link": "https://www.archstl.org/parish-directory/sacred-heart-elsberry",
        "phone": "573.898.2202",
        "address": "714 Lincoln St., Elsberry, MO 63343-1125"
      },
      "geometry": {
        "type": "Point",
        "coordinates": [
          -90.789236,
          39.164687
        ]
      }
    },
    {
      "type": "Feature",
      "properties": {
        "title": "Sacred Heart (Florissant)",
        "link": "https://www.archstl.org/parish-directory/sacred-heart-florissant",
        "phone": "314.837.3757",
        "address": "751 N. Jefferson St., Florissant, MO 63031-5085"
      },
      "geometry": {
        "type": "Point",
        "coordinates": [
          -90.325991,
          38.794831
        ]
      }
    },
    {
      "type": "Feature",
      "properties": {
        "title": "Sacred Heart (Ozora)",
        "link": "https://www.archstl.org/parish-directory/sacred-heart-ozora",
        "phone": "573.543.2209",
        "address": "17742 State Rte. N, St. Mary, MO 63673-9035"
      },
      "geometry": {
        "type": "Point",
        "coordinates": [
          -90.32632,
          37.867563
        ]
      }
    },
    {
      "type": "Feature",
      "properties": {
        "title": "Sacred Heart (Troy)",
        "link": "https://www.archstl.org/parish-directory/sacred-heart-troy",
        "phone": "636.528.8219",
        "address": "100 Thompson Dr., Troy, MO 63379-2321"
      },
      "geometry": {
        "type": "Point",
        "coordinates": [
          -90.962194,
          38.978305
        ]
      }
    },
    {
      "type": "Feature",
      "properties": {
        "title": "Sacred Heart (Valley Park)",
        "link": "https://www.archstl.org/parish-directory/sacred-heart-valley-park",
        "phone": "636.225.5268",
        "address": "17 Ann Ave., Valley Park, MO 63088-1696"
      },
      "geometry": {
        "type": "Point",
        "coordinates": [
          -90.49187,
          38.552166
        ]
      }
    },
    {
      "type": "Feature",
      "properties": {
        "title": "Seven Holy Founders (Affton)",
        "link": "https://www.archstl.org/parish-directory/seven-holy-founders-affton",
        "phone": "314.638.3938",
        "address": "6741 S. Rockhill Rd., St. Louis, MO 63123-3198"
      },
      "geometry": {
        "type": "Point",
        "coordinates": [
          -90.324115,
          38.547552
        ]
      }
    },
    {
      "type": "Feature",
      "properties": {
        "title": "St. Agatha (St. Louis)",
        "link": "https://www.archstl.org/parish-directory/st-agatha-st-louis",
        "phone": "314.772.1603",
        "address": "3239 S. Ninth St., St. Louis, MO 63118-2697"
      },
      "geometry": {
        "type": "Point",
        "coordinates": [
          -90.214699,
          38.594394
        ]
      }
    },
    {
      "type": "Feature",
      "properties": {
        "title": "St. Agnes (Bloomsdale)",
        "link": "https://www.archstl.org/parish-directory/st-agnes-bloomsdale",
        "phone": "573.483.2555",
        "address": "40 St. Agnes Dr., P.O. Box 124, Bloomsdale, MO 63627-0124"
      },
      "geometry": {
        "type": "Point",
        "coordinates": [
          -90.252806,
          38.023217
        ]
      }
    },
    {
      "type": "Feature",
      "properties": {
        "title": "St. Alban Roe (Wildwood)",
        "link": "https://www.archstl.org/parish-directory/st-alban-roe-wildwood",
        "phone": "636.458.2977",
        "address": "2001 Shepard Rd., Wildwood, MO 63038-1360"
      },
      "geometry": {
        "type": "Point",
        "coordinates": [
          -90.643009,
          38.597168
        ]
      }
    },
    {
      "type": "Feature",
      "properties": {
        "title": "St. Alphonsus (Millwood)",
        "link": "https://www.archstl.org/parish-directory/st-alphonsus-millwood",
        "phone": "573.384.6223",
        "address": "29 St. Alphonsus Rd., Silex, MO 63377-3217"
      },
      "geometry": {
        "type": "Point",
        "coordinates": [
          -91.106228,
          39.10465
        ]
      }
    },
    {
      "type": "Feature",
      "properties": {
        "title": "St. Alphonsus Liguori (Rock) (St. Louis)",
        "link": "https://www.archstl.org/parish-directory/st-alphonsus-liguori-rock-st-louis",
        "phone": "314.533.0304",
        "address": "1118 N. Grand Blvd., St. Louis, MO 63106-1696"
      },
      "geometry": {
        "type": "Point",
        "coordinates": [
          -90.227572,
          38.643856
        ]
      }
    },
    {
      "type": "Feature",
      "properties": {
        "title": "St. Ambrose (St. Louis)",
        "link": "https://www.archstl.org/parish-directory/st-ambrose-st-louis",
        "phone": "314.771.1228",
        "address": "5130 Wilson Ave., St. Louis, MO 63110-3110"
      },
      "geometry": {
        "type": "Point",
        "coordinates": [
          -90.27198,
          38.615308
        ]
      }
    },
    {
      "type": "Feature",
      "properties": {
        "title": "St. Andrew (Lemay)",
        "link": "https://www.archstl.org/parish-directory/st-andrew-lemay",
        "phone": "314.631.0691",
        "address": "309 Hoffmeister Ave., St. Louis, MO 63125-1609"
      },
      "geometry": {
        "type": "Point",
        "coordinates": [
          -90.276226,
          38.534375
        ]
      }
    },
    {
      "type": "Feature",
      "properties": {
        "title": "St. Andrew Kim (University City)",
        "link": "https://www.archstl.org/parish-directory/st-andrew-kim-university-city",
        "phone": "314.993.1277",
        "address": "8665 Olive Blvd., St. Louis, MO 63132-2586"
      },
      "geometry": {
        "type": "Point",
        "coordinates": [
          -90.35901,
          38.675503
        ]
      }
    },
    {
      "type": "Feature",
      "properties": {
        "title": "St. Angela Merici (Florissant)",
        "link": "https://www.archstl.org/parish-directory/st-angela-merici-florissant",
        "phone": "314.838.6565",
        "address": "3860 N. Highway 67, Florissant, MO 63034-2427"
      },
      "geometry": {
        "type": "Point",
        "coordinates": [
          -90.285255,
          38.814172
        ]
      }
    },
    {
      "type": "Feature",
      "properties": {
        "title": "St. Ann (Clover Bottom)",
        "link": "https://www.archstl.org/parish-directory/st-ann-clover-bottom",
        "phone": "636.239.3222",
        "address": "7851 Highway YY, Washington, MO 63090-4050"
      },
      "geometry": {
        "type": "Point",
        "coordinates": [
          -91.043651,
          38.491163
        ]
      }
    },
    {
      "type": "Feature",
      "properties": {
        "title": "St. Ann (Normandy)",
        "link": "https://www.archstl.org/parish-directory/st-ann-normandy",
        "phone": "314.385.5090",
        "address": "7530 Natural Bridge Rd., St. Louis, MO 63121-4993"
      },
      "geometry": {
        "type": "Point",
        "coordinates": [
          -90.300477,
          38.704678
        ]
      }
    },
    {
      "type": "Feature",
      "properties": {
        "title": "St. Anne (French Village)",
        "link": "https://www.archstl.org/parish-directory/st-anne-french-village",
        "phone": "573.358.2112",
        "address": "C/O 15 St. Joseph St., Bonne Terre, MO 63628-1294"
      },
      "geometry": {
        "type": "Point",
        "coordinates": [
          -90.496173,
          37.928464
        ]
      }
    },
    {
      "type": "Feature",
      "properties": {
        "title": "St. Anselm (Creve Coeur)",
        "link": "https://www.archstl.org/parish-directory/st-anselm-creve-coeur",
        "phone": "314.878.2120",
        "address": "530 S. Mason Rd., St. Louis, MO 63141-8522"
      },
      "geometry": {
        "type": "Point",
        "coordinates": [
          -90.478668,
          38.642837
        ]
      }
    },
    {
      "type": "Feature",
      "properties": {
        "title": "St. Anthony (Sullivan)",
        "link": "https://www.archstl.org/parish-directory/st-anthony-sullivan",
        "phone": "573.468.6101",
        "address": "201 W. Springfield Rd., Sullivan, MO 63080-1550"
      },
      "geometry": {
        "type": "Point",
        "coordinates": [
          -91.164013,
          38.213463
        ]
      }
    },
    {
      "type": "Feature",
      "properties": {
        "title": "St. Anthony of Padua (High Ridge)",
        "link": "https://www.archstl.org/parish-directory/st-anthony-of-padua-high-ridge",
        "phone": "636.677.4868",
        "address": "3009 High Ridge Blvd., High Ridge, MO 63049-2216"
      },
      "geometry": {
        "type": "Point",
        "coordinates": [
          -90.536179,
          38.458171
        ]
      }
    },
    {
      "type": "Feature",
      "properties": {
        "title": "St. Anthony of Padua (St. Louis)",
        "link": "https://www.archstl.org/parish-directory/st-anthony-of-padua-st-louis",
        "phone": "314.353.7470",
        "address": "3140 Meramec St., St. Louis, MO 63118-4399"
      },
      "geometry": {
        "type": "Point",
        "coordinates": [
          -90.239541,
          38.579537
        ]
      }
    },
    {
      "type": "Feature",
      "properties": {
        "title": "St. Augustine (St. Louis)",
        "link": "https://www.archstl.org/parish-directory/st-augustine-st-louis",
        "phone": "314.385.1934",
        "address": "1371 Hamilton Ave., St. Louis, MO 63112-3751"
      },
      "geometry": {
        "type": "Point",
        "coordinates": [
          -90.285287,
          38.670334
        ]
      }
    },
    {
      "type": "Feature",
      "properties": {
        "title": "St. Barnabas (OFallon)",
        "link": "https://www.archstl.org/parish-directory/st-barnabas-ofallon",
        "phone": "636.240.4556",
        "address": "1400 N. Main St., O'Fallon, MO 63366-4321"
      },
      "geometry": {
        "type": "Point",
        "coordinates": [
          -90.699064,
          38.830431
        ]
      }
    },
    {
      "type": "Feature",
      "properties": {
        "title": "St. Bernadette (Lemay)",
        "link": "https://www.archstl.org/parish-directory/st-bernadette-lemay",
        "phone": "314.892.6882",
        "address": "68 Sherman Rd., St. Louis, MO 63125-4125"
      },
      "geometry": {
        "type": "Point",
        "coordinates": [
          -90.285593,
          38.505225
        ]
      }
    },
    {
      "type": "Feature",
      "properties": {
        "title": "St. Bridget of Kildare (Pacific)",
        "link": "https://www.archstl.org/parish-directory/st-bridget-of-kildare-pacific",
        "phone": "636.271.3993",
        "address": "111 W. Union St., Pacific, MO 63069-1414"
      },
      "geometry": {
        "type": "Point",
        "coordinates": [
          -90.741521,
          38.483232
        ]
      }
    },
    {
      "type": "Feature",
      "properties": {
        "title": "St. Catherine Laboure (Sappington)",
        "link": "https://www.archstl.org/parish-directory/st-catherine-laboure-sappington",
        "phone": "314.843.3245",
        "address": "9740 Sappington Rd., St. Louis, MO 63128-1293"
      },
      "geometry": {
        "type": "Point",
        "coordinates": [
          -90.37948,
          38.527591
        ]
      }
    },
    {
      "type": "Feature",
      "properties": {
        "title": "St. Catherine of Alexandria (Coffman)",
        "link": "https://www.archstl.org/parish-directory/st-catherine-of-alexandria-coffman",
        "phone": "573.756.4250",
        "address": "23496 State Route WW, Ste. Genevieve, MO 63670-3132"
      },
      "geometry": {
        "type": "Point",
        "coordinates": [
          -90.194393,
          37.780241
        ]
      }
    },
    {
      "type": "Feature",
      "properties": {
        "title": "St. Cecilia (St. Louis)",
        "link": "https://www.archstl.org/parish-directory/st-cecilia-st-louis",
        "phone": "314.351.1318",
        "address": "5418 Louisiana Ave., St. Louis, MO 63111-1897"
      },
      "geometry": {
        "type": "Point",
        "coordinates": [
          -90.250406,
          38.568744
        ]
      }
    },
    {
      "type": "Feature",
      "properties": {
        "title": "St. Charles Borromeo (St. Charles)",
        "link": "https://www.archstl.org/parish-directory/st-charles-borromeo-st-charles",
        "phone": "636.946.1893",
        "address": "601 N. Fourth St., St. Charles, MO 63301-2093"
      },
      "geometry": {
        "type": "Point",
        "coordinates": [
          -90.482543,
          38.787257
        ]
      }
    },
    {
      "type": "Feature",
      "properties": {
        "title": "St. Clare (St. Clair)",
        "link": "https://www.archstl.org/parish-directory/st-clare-st-clair",
        "phone": "636.629.0315",
        "address": "165 E. Springfield Rd., St. Clair, MO 63077-1727"
      },
      "geometry": {
        "type": "Point",
        "coordinates": [
          -90.985472,
          38.34245
        ]
      }
    },
    {
      "type": "Feature",
      "properties": {
        "title": "St. Clare of Assisi (Ellisville)",
        "link": "https://www.archstl.org/parish-directory/st-clare-of-assisi-ellisville",
        "phone": "636.394.7307",
        "address": "15642 Clayton Rd., Ellisville, MO 63011-2398"
      },
      "geometry": {
        "type": "Point",
        "coordinates": [
          -90.572748,
          38.605756
        ]
      }
    },
    {
      "type": "Feature",
      "properties": {
        "title": "St. Clement of Rome (Des Peres)",
        "link": "https://www.archstl.org/parish-directory/st-clement-of-rome-des-peres",
        "phone": "314.965.0709",
        "address": "1510 Bopp Rd., St. Louis, MO 63131-4137"
      },
      "geometry": {
        "type": "Point",
        "coordinates": [
          -90.433298,
          38.608835
        ]
      }
    },
    {
      "type": "Feature",
      "properties": {
        "title": "St. Cletus (St. Charles)",
        "link": "https://www.archstl.org/parish-directory/st-cletus-st-charles",
        "phone": "636.946.6327",
        "address": "2705 Zumbehl Rd., St. Charles, MO 63301-1135"
      },
      "geometry": {
        "type": "Point",
        "coordinates": [
          -90.535871,
          38.801202
        ]
      }
    },
    {
      "type": "Feature",
      "properties": {
        "title": "St. Cronan (St. Louis)",
        "link": "https://www.archstl.org/parish-directory/st-cronan-st-louis",
        "phone": "314.289.9384",
        "address": "1202 S. Boyle Ave., St. Louis, MO 63110-3894"
      },
      "geometry": {
        "type": "Point",
        "coordinates": [
          -90.253842,
          38.626465
        ]
      }
    },
    {
      "type": "Feature",
      "properties": {
        "title": "St. David (Arnold)",
        "link": "https://www.archstl.org/parish-directory/st-david-arnold",
        "phone": "636.296.5485",
        "address": "2334 Tenbrook Rd., Arnold, MO 63010-2366"
      },
      "geometry": {
        "type": "Point",
        "coordinates": [
          -90.362484,
          38.442099
        ]
      }
    },
    {
      "type": "Feature",
      "properties": {
        "title": "St. Elizabeth Ann Seton (St. Charles)",
        "link": "https://www.archstl.org/parish-directory/st-elizabeth-ann-seton-st-charles",
        "phone": "636.946.6717",
        "address": "2 Seton Ct., St. Charles, MO 63303-3362"
      },
      "geometry": {
        "type": "Point",
        "coordinates": [
          -90.541827,
          38.777464
        ]
      }
    },
    {
      "type": "Feature",
      "properties": {
        "title": "St. Elizabeth of Hungary (Crestwood)",
        "link": "https://www.archstl.org/parish-directory/st-elizabeth-of-hungary-crestwood",
        "phone": "314.968.0760",
        "address": "1420 S. Sappington Rd., St. Louis, MO 63126-1699"
      },
      "geometry": {
        "type": "Point",
        "coordinates": [
          -90.384634,
          38.560996
        ]
      }
    },
    {
      "type": "Feature",
      "properties": {
        "title": "St. Elizabeth, Mother of John the Baptist (St. Louis)",
        "link": "https://www.archstl.org/parish-directory/st-elizabeth-mother-of-john-the-baptist-st-louis",
        "phone": "314.381.4145",
        "address": "4330 Shreve Ave., St. Louis, MO 63115-2199"
      },
      "geometry": {
        "type": "Point",
        "coordinates": [
          -90.239634,
          38.681106
        ]
      }
    },
    {
      "type": "Feature",
      "properties": {
        "title": "St. Ferdinand (Florissant)",
        "link": "https://www.archstl.org/parish-directory/st-ferdinand-florissant",
        "phone": "314.837.3165",
        "address": "1765 Charbonier Rd., Florissant, MO 63031-5497"
      },
      "geometry": {
        "type": "Point",
        "coordinates": [
          -90.354651,
          38.807005
        ]
      }
    },
    {
      "type": "Feature",
      "properties": {
        "title": "St. Francis Borgia (Washington)",
        "link": "https://www.archstl.org/parish-directory/st-francis-borgia-washington",
        "phone": "636.239.6701",
        "address": "115 Cedar St., Washington, MO 63090-2193"
      },
      "geometry": {
        "type": "Point",
        "coordinates": [
          -91.014759,
          38.5607
        ]
      }
    },
    {
      "type": "Feature",
      "properties": {
        "title": "St. Francis De Sales Oratory (St. Louis)",
        "link": "https://www.archstl.org/parish-directory/st-francis-de-sales-oratory-st-louis",
        "phone": "314.771.3100",
        "address": "2653 Ohio Ave., St. Louis, MO 63118-1594"
      },
      "geometry": {
        "type": "Point",
        "coordinates": [
          -90.226099,
          38.604356
        ]
      }
    },
    {
      "type": "Feature",
      "properties": {
        "title": "St. Francis of Assisi (Luebbering)",
        "link": "https://www.archstl.org/parish-directory/st-francis-of-assisi-luebbering",
        "phone": "636.629.1717",
        "address": "1000 Luebbering Rd., Luebbering, MO 63061-3100"
      },
      "geometry": {
        "type": "Point",
        "coordinates": [
          -90.823168,
          38.26946
        ]
      }
    },
    {
      "type": "Feature",
      "properties": {
        "title": "St. Francis of Assisi (Oakville)",
        "link": "https://www.archstl.org/parish-directory/st-francis-of-assisi-oakville",
        "phone": "314.487.5736",
        "address": "4556 Telegraph Rd., St. Louis, MO 63129-3397"
      },
      "geometry": {
        "type": "Point",
        "coordinates": [
          -90.303991,
          38.479564
        ]
      }
    },
    {
      "type": "Feature",
      "properties": {
        "title": "St. Francis of Assisi (Portage des Sioux)",
        "link": "https://www.archstl.org/parish-directory/st-francis-of-assisi-portage-des-sioux",
        "phone": "314.482.6084",
        "address": "1355 Farnham St., Portage Des Sioux, MO 63373-0129"
      },
      "geometry": {
        "type": "Point",
        "coordinates": [
          -90.344522,
          38.925905
        ]
      }
    },
    {
      "type": "Feature",
      "properties": {
        "title": "St. Francis Xavier (College Church) (St. Louis)",
        "link": "https://www.archstl.org/parish-directory/st-francis-xavier-college-church-st-louis",
        "phone": "314.977.7300",
        "address": "3628 Lindell Blvd., St. Louis, MO 63108-3394"
      },
      "geometry": {
        "type": "Point",
        "coordinates": [
          -90.234759,
          38.637208
        ]
      }
    },
    {
      "type": "Feature",
      "properties": {
        "title": "St. Gabriel the Archangel (St. Louis)",
        "link": "https://www.archstl.org/parish-directory/st-gabriel-the-archangel-st-louis",
        "phone": "314.353.6303",
        "address": "6303 Nottingham Ave., St. Louis, MO 63109-3177"
      },
      "geometry": {
        "type": "Point",
        "coordinates": [
          -90.299254,
          38.587797
        ]
      }
    },
    {
      "type": "Feature",
      "properties": {
        "title": "St. Gerald",
        "link": "https://www.archstl.org/parish-directory/st-gerald",
        "phone": "573.459.6441",
        "address": "c/o 124 Holy Family Church Rd., New Haven, MO 63068"
      },
      "geometry": {
        "type": "Point",
        "coordinates": [
          -91.247283,
          38.558487
        ]
      }
    },
    {
      "type": "Feature",
      "properties": {
        "title": "St. Gerard Majella (Kirkwood)",
        "link": "https://www.archstl.org/parish-directory/st-gerard-majella-kirkwood",
        "phone": "314.965.3985",
        "address": "1969 Dougherty Ferry Rd., St. Louis, MO 63122-3538"
      },
      "geometry": {
        "type": "Point",
        "coordinates": [
          -90.440572,
          38.585774
        ]
      }
    },
    {
      "type": "Feature",
      "properties": {
        "title": "St. Gertrude (Krakow)",
        "link": "https://www.archstl.org/parish-directory/st-gertrude-krakow",
        "phone": "636.239.4216",
        "address": "6535 Highway YY, Washington, MO 63090-4074"
      },
      "geometry": {
        "type": "Point",
        "coordinates": [
          -91.043651,
          38.491163
        ]
      }
    },
    {
      "type": "Feature",
      "properties": {
        "title": "St. Gianna (Wentzville)",
        "link": "https://www.archstl.org/parish-directory/st-gianna-wentzville",
        "phone": "636.327.3639",
        "address": "450 E. Highway N, Wentzville, MO 63385-5905"
      },
      "geometry": {
        "type": "Point",
        "coordinates": [
          -90.852228,
          38.79067
        ]
      }
    },
    {
      "type": "Feature",
      "properties": {
        "title": "St. Ignatius Loyola (Concord Hill)",
        "link": "https://www.archstl.org/parish-directory/st-ignatius-loyola-concord-hill",
        "phone": "636.932.4445",
        "address": "19127 Mill Rd., Marthasville, MO 63357-3096"
      },
      "geometry": {
        "type": "Point",
        "coordinates": [
          -91.139568,
          38.649403
        ]
      }
    },
    {
      "type": "Feature",
      "properties": {
        "title": "St. James (Catawissa)",
        "link": "https://www.archstl.org/parish-directory/st-james-catawissa",
        "phone": "636.451.4685",
        "address": "1107 Summit Dr., Catawissa, MO 63015-1404"
      },
      "geometry": {
        "type": "Point",
        "coordinates": [
          -90.785161,
          38.427185
        ]
      }
    },
    {
      "type": "Feature",
      "properties": {
        "title": "St. James (Crosstown)",
        "link": "https://www.archstl.org/parish-directory/st-james-crosstown",
        "phone": "573.547.4300",
        "address": "Administered from St. Vincent de Paul (Perryville), C/O 1010 Rosati Ct."
      },
      "geometry": {
        "type": "Point",
        "coordinates": [
          -72.20448,
          42.108585
        ]
      }
    },
    {
      "type": "Feature",
      "properties": {
        "title": "St. James (Potosi)",
        "link": "https://www.archstl.org/parish-directory/st-james-potosi",
        "phone": "573.438.4686",
        "address": "201 N. Missouri Ave., Potosi, MO 63664-1745"
      },
      "geometry": {
        "type": "Point",
        "coordinates": [
          -90.787061,
          37.936894
        ]
      }
    },
    {
      "type": "Feature",
      "properties": {
        "title": "St. James the Greater (St. Louis)",
        "link": "https://www.archstl.org/parish-directory/st-james-the-greater-st-louis",
        "phone": "314.645.0167",
        "address": "6401 Wade Ave., St. Louis, MO 63139-3497"
      },
      "geometry": {
        "type": "Point",
        "coordinates": [
          -90.293771,
          38.625759
        ]
      }
    },
    {
      "type": "Feature",
      "properties": {
        "title": "St. Joachim (Old Mines)",
        "link": "https://www.archstl.org/parish-directory/st-joachim-old-mines",
        "phone": "573.438.6181",
        "address": "10120 Crest Rd., Cadet, MO 63630-9629"
      },
      "geometry": {
        "type": "Point",
        "coordinates": [
          -90.728895,
          38.018265
        ]
      }
    },
    {
      "type": "Feature",
      "properties": {
        "title": "St. Joan of Arc (St. Louis)",
        "link": "https://www.archstl.org/parish-directory/st-joan-of-arc-st-louis",
        "phone": "314.832.2838",
        "address": "5800 Oleatha Ave., St. Louis, MO 63139-1979"
      },
      "geometry": {
        "type": "Point",
        "coordinates": [
          -90.291574,
          38.597208
        ]
      }
    },
    {
      "type": "Feature",
      "properties": {
        "title": "St. John Bosco (Creve Coeur)",
        "link": "https://www.archstl.org/parish-directory/st-john-bosco-creve-coeur",
        "phone": "314.434.1312",
        "address": "12934 Marine Ave., St. Louis, MO 63146-2234"
      },
      "geometry": {
        "type": "Point",
        "coordinates": [
          -90.473909,
          38.706998
        ]
      }
    },
    {
      "type": "Feature",
      "properties": {
        "title": "St. John Nepomuk Chapel (St. Louis)",
        "link": "https://www.archstl.org/parish-directory/st-john-nepomuk-chapel-st-louis",
        "phone": "314.231.0141",
        "address": "1625 S. Eleventh St., St. Louis, MO 63104-3705"
      },
      "geometry": {
        "type": "Point",
        "coordinates": [
          -90.214461,
          38.611401
        ]
      }
    },
    {
      "type": "Feature",
      "properties": {
        "title": "St. John Paul II (Affton)",
        "link": "https://www.archstl.org/parish-directory/st-john-paul-ii-affton",
        "phone": "314.353.7629",
        "address": "4980 Heege Road, St. Louis, MO 63123-4791"
      },
      "geometry": {
        "type": "Point",
        "coordinates": [
          -90.302443,
          38.558633
        ]
      }
    },
    {
      "type": "Feature",
      "properties": {
        "title": "St. John the Apostle (Bismarck)",
        "link": "https://www.archstl.org/parish-directory/st-john-the-apostle-bismarck",
        "phone": "573.431.2427",
        "address": "P.O. Box 66, Park Hills, MO 63601-0066"
      },
      "geometry": {
        "type": "Point",
        "coordinates": [
          -90.488486,
          37.849808
        ]
      }
    },
    {
      "type": "Feature",
      "properties": {
        "title": "St. John the Baptist (Gildehaus)",
        "link": "https://www.archstl.org/parish-directory/st-john-the-baptist-gildehaus",
        "phone": "636.583.2488",
        "address": "5567 Gildehaus Rd., Villa Ridge, MO 63089-1228"
      },
      "geometry": {
        "type": "Point",
        "coordinates": [
          -90.939766,
          38.484507
        ]
      }
    },
    {
      "type": "Feature",
      "properties": {
        "title": "St. John the Baptist (St. Louis)",
        "link": "https://www.archstl.org/parish-directory/st-john-the-baptist-st-louis",
        "phone": "314.353.1255",
        "address": "4200 Delor St., St. Louis, MO 63116-2388"
      },
      "geometry": {
        "type": "Point",
        "coordinates": [
          -90.26436,
          38.579689
        ]
      }
    },
    {
      "type": "Feature",
      "properties": {
        "title": "St. John the Beloved Disciple (Imperial)",
        "link": "https://www.archstl.org/parish-directory/st-john-the-beloved-disciple-imperial",
        "phone": "636.296.8061",
        "address": "4614 Blue Springs Dr., Imperial, MO 63052-1237"
      },
      "geometry": {
        "type": "Point",
        "coordinates": [
          -90.493008,
          38.414862
        ]
      }
    },
    {
      "type": "Feature",
      "properties": {
        "title": "St. John, Apostle and Evangelist (St. Louis)",
        "link": "https://www.archstl.org/parish-directory/st-john-apostle-and-evangelist-st-louis",
        "phone": "314.421.3467",
        "address": "15 Plaza Sq., St. Louis, MO 63103-2395"
      },
      "geometry": {
        "type": "Point",
        "coordinates": [
          -90.203109,
          38.629662
        ]
      }
    },
    {
      "type": "Feature",
      "properties": {
        "title": "St. Joseph (Apple Creek)",
        "link": "https://www.archstl.org/parish-directory/st-joseph-apple-creek",
        "phone": "573.788.2330",
        "address": "138 St. Joseph Ln., Perryville, MO 63775-6242"
      },
      "geometry": {
        "type": "Point",
        "coordinates": [
          -89.751373,
          37.612862
        ]
      }
    },
    {
      "type": "Feature",
      "properties": {
        "title": "St. Joseph (Bonne Terre)",
        "link": "https://www.archstl.org/parish-directory/st-joseph-bonne-terre",
        "phone": "573.358.2112",
        "address": "15 St. Joseph St., Bonne Terre, MO 63628-1294"
      },
      "geometry": {
        "type": "Point",
        "coordinates": [
          -90.554261,
          37.924268
        ]
      }
    },
    {
      "type": "Feature",
      "properties": {
        "title": "St. Joseph (Clayton)",
        "link": "https://www.archstl.org/parish-directory/st-joseph-clayton",
        "phone": "314.726.1221",
        "address": "106 N. Meramec Ave., St. Louis, MO 63105-3788"
      },
      "geometry": {
        "type": "Point",
        "coordinates": [
          -90.339159,
          38.652009
        ]
      }
    },
    {
      "type": "Feature",
      "properties": {
        "title": "St. Joseph (Cottleville)",
        "link": "https://www.archstl.org/parish-directory/st-joseph-cottleville",
        "phone": "636.441.0055",
        "address": "1355 Motherhead Rd., St. Charles, MO 63304-7686"
      },
      "geometry": {
        "type": "Point",
        "coordinates": [
          -90.652732,
          38.7433
        ]
      }
    },
    {
      "type": "Feature",
      "properties": {
        "title": "St. Joseph (Farmington)",
        "link": "https://www.archstl.org/parish-directory/st-joseph-farmington",
        "phone": "573.756.4250",
        "address": "10 N. Long St., Farmington, MO 63640-3132"
      },
      "geometry": {
        "type": "Point",
        "coordinates": [
          -90.415301,
          37.77997
        ]
      }
    },
    {
      "type": "Feature",
      "properties": {
        "title": "St. Joseph (Highland)",
        "link": "https://www.archstl.org/parish-directory/st-joseph-highland",
        "phone": "573.547.4300",
        "address": "C/O 1010 Rosati Ct., Perryville, MO 63775-2319"
      },
      "geometry": {
        "type": "Point",
        "coordinates": [
          -89.862749,
          37.727156
        ]
      }
    },
    {
      "type": "Feature",
      "properties": {
        "title": "St. Joseph (Imperial)",
        "link": "https://www.archstl.org/parish-directory/st-joseph-imperial",
        "phone": "636.464.1013",
        "address": "6020 Old Antonia Rd., Imperial, MO 63052-2394"
      },
      "geometry": {
        "type": "Point",
        "coordinates": [
          -90.389809,
          38.368533
        ]
      }
    },
    {
      "type": "Feature",
      "properties": {
        "title": "St. Joseph (Josephville)",
        "link": "https://www.archstl.org/parish-directory/st-joseph-josephville",
        "phone": "636.332.6676",
        "address": "1390 Josephville Rd., Wentzville, MO 63385-3008"
      },
      "geometry": {
        "type": "Point",
        "coordinates": [
          -90.796002,
          38.843135
        ]
      }
    },
    {
      "type": "Feature",
      "properties": {
        "title": "St. Joseph (Manchester)",
        "link": "https://www.archstl.org/parish-directory/st-joseph-manchester",
        "phone": "636.227.5247",
        "address": "567 St. Joseph Ln., Manchester, MO 63021-5393"
      },
      "geometry": {
        "type": "Point",
        "coordinates": [
          -90.517753,
          38.587188
        ]
      }
    },
    {
      "type": "Feature",
      "properties": {
        "title": "St. Joseph (Neier)",
        "link": "https://www.archstl.org/parish-directory/st-joseph-neier",
        "phone": "636.583.2806",
        "address": "2401 Neier Rd., Union, MO 63084-3411"
      },
      "geometry": {
        "type": "Point",
        "coordinates": [
          -91.109409,
          38.389989
        ]
      }
    },
    {
      "type": "Feature",
      "properties": {
        "title": "St. Joseph (Tiff)",
        "link": "https://www.archstl.org/parish-directory/st-joseph-tiff",
        "phone": "573.438.6181",
        "address": "C/O 10120 Crest Rd., Cadet, MO 63630-9717"
      },
      "geometry": {
        "type": "Point",
        "coordinates": [
          -90.728895,
          38.018265
        ]
      }
    },
    {
      "type": "Feature",
      "properties": {
        "title": "St. Joseph (Zell)",
        "link": "https://www.archstl.org/parish-directory/st-joseph-zell",
        "phone": "573.883.3481",
        "address": "11824 Zell Rd., Ste. Genevieve, MO 63670-8025"
      },
      "geometry": {
        "type": "Point",
        "coordinates": [
          -90.146349,
          37.950741
        ]
      }
    },
    {
      "type": "Feature",
      "properties": {
        "title": "St. Joseph, Shrine of (St. Louis)",
        "link": "https://www.archstl.org/parish-directory/st-joseph-shrine-of-st-louis",
        "phone": "314.231.9407",
        "address": "1220 N. Eleventh St., St. Louis, MO 63106-4614"
      },
      "geometry": {
        "type": "Point",
        "coordinates": [
          -90.208361,
          38.644501
        ]
      }
    },
    {
      "type": "Feature",
      "properties": {
        "title": "St. Joseph-Croatian (St. Louis)",
        "link": "https://www.archstl.org/parish-directory/st-joseph-croatian-st-louis",
        "phone": "314.771.0958",
        "address": "2112 S. Twelfth St., St. Louis, MO 63104-4129"
      },
      "geometry": {
        "type": "Point",
        "coordinates": [
          -90.214461,
          38.611401
        ]
      }
    },
    {
      "type": "Feature",
      "properties": {
        "title": "St. Jude (Overland)",
        "link": "https://www.archstl.org/parish-directory/st-jude-overland",
        "phone": "314.428.2262",
        "address": "2218 N. Warson Rd., St. Louis, MO 63114-2025"
      },
      "geometry": {
        "type": "Point",
        "coordinates": [
          -90.39949,
          38.698395
        ]
      }
    },
    {
      "type": "Feature",
      "properties": {
        "title": "St. Justin Martyr (Sunset Hills)",
        "link": "https://www.archstl.org/parish-directory/st-justin-martyr-sunset-hills",
        "phone": "314.843.8482",
        "address": "11910 Eddie and Park Rd., St. Louis, MO 63126-2908"
      },
      "geometry": {
        "type": "Point",
        "coordinates": [
          -90.39076,
          38.543896
        ]
      }
    },
    {
      "type": "Feature",
      "properties": {
        "title": "St. Lawrence (Lawrenceton)",
        "link": "https://www.archstl.org/parish-directory/st-lawrence-lawrenceton",
        "phone": "573.483.2555",
        "address": "C/O 40 St. Agnes Dr., P.O. Box 124"
      },
      "geometry": {
        "type": "Point",
        "coordinates": [
          -90.305025,
          37.9651321
        ]
      }
    },
    {
      "type": "Feature",
      "properties": {
        "title": "St. Louis Byzantine (Ruthenian) Church Byzantine Eparchy of Parma",
        "link": "https://www.archstl.org/parish-directory/st-louis-byzantine-ruthenian-church-byzantine-eparchy-of-parma",
        "phone": "314.434.4211",
        "address": "320 E. Ripa Ave., St. Louis, MO 63123"
      },
      "geometry": {
        "type": "Point",
        "coordinates": [
          -90.271898,
          38.52362
        ]
      }
    },
    {
      "type": "Feature",
      "properties": {
        "title": "St. Luke the Evangelist (Richmond Heights)",
        "link": "https://www.archstl.org/parish-directory/st-luke-the-evangelist-richmond-heights",
        "phone": "314.644.2144",
        "address": "7230 Dale Ave., St. Louis, MO 63117-2398"
      },
      "geometry": {
        "type": "Point",
        "coordinates": [
          -90.311871,
          38.626988
        ]
      }
    },
    {
      "type": "Feature",
      "properties": {
        "title": "St. Margaret Mary Alacoque (Mehlville)",
        "link": "https://www.archstl.org/parish-directory/st-margaret-mary-alacoque-mehlville",
        "phone": "314.487.2522",
        "address": "4900 Ringer Rd., St. Louis, MO 63129-1797"
      },
      "geometry": {
        "type": "Point",
        "coordinates": [
          -90.329693,
          38.486291
        ]
      }
    },
    {
      "type": "Feature",
      "properties": {
        "title": "St. Margaret of Scotland (St. Louis)",
        "link": "https://www.archstl.org/parish-directory/st-margaret-of-scotland-st-louis",
        "phone": "314.776.0363",
        "address": "3854 Flad Ave., St. Louis, MO 63110-4024"
      },
      "geometry": {
        "type": "Point",
        "coordinates": [
          -90.245425,
          38.611562
        ]
      }
    },
    {
      "type": "Feature",
      "properties": {
        "title": "St. Mark",
        "link": "https://www.archstl.org/parish-directory/st-mark",
        "phone": "314.743.8600",
        "address": "4200 Ripa Ave., St. Louis, MO 63125-6815"
      },
      "geometry": {
        "type": "Point",
        "coordinates": [
          -90.305035,
          38.534485
        ]
      }
    },
    {
      "type": "Feature",
      "properties": {
        "title": "St. Martin De Porres (Hazelwood)",
        "link": "https://www.archstl.org/parish-directory/st-martin-de-porres-hazelwood",
        "phone": "314.895.1100",
        "address": "615 Dunn Rd., Hazelwood, MO 63042-1725"
      },
      "geometry": {
        "type": "Point",
        "coordinates": [
          -90.369139,
          38.782474
        ]
      }
    },
    {
      "type": "Feature",
      "properties": {
        "title": "St. Martin of Tours (Lemay)",
        "link": "https://www.archstl.org/parish-directory/st-martin-of-tours-lemay",
        "phone": "314.544.5664",
        "address": "610 W. Ripa Ave., St. Louis, MO 63125-2524"
      },
      "geometry": {
        "type": "Point",
        "coordinates": [
          -90.286769,
          38.523616
        ]
      }
    },
    {
      "type": "Feature",
      "properties": {
        "title": "St. Mary (Hawk Point)",
        "link": "https://www.archstl.org/parish-directory/st-mary-hawk-point",
        "phone": "636.338.4331",
        "address": "P.O. Box 205, Hawk Point, MO 63349-0205"
      },
      "geometry": {
        "type": "Point",
        "coordinates": [
          -91.127211,
          38.980781
        ]
      }
    },
    {
      "type": "Feature",
      "properties": {
        "title": "St. Mary Magdalen (Brentwood)",
        "link": "https://www.archstl.org/parish-directory/st-mary-magdalen-brentwood",
        "phone": "314.961.8400",
        "address": "2618 Brentwood Blvd., St. Louis, MO 63144-2319"
      },
      "geometry": {
        "type": "Point",
        "coordinates": [
          -90.349012,
          38.613561
        ]
      }
    },
    {
      "type": "Feature",
      "properties": {
        "title": "St. Mary Magdalen (St. Louis)",
        "link": "https://www.archstl.org/parish-directory/st-mary-magdalen-st-louis",
        "phone": "314.352.2111",
        "address": "4924 Bancroft Ave., St. Louis, MO 63109-2499"
      },
      "geometry": {
        "type": "Point",
        "coordinates": [
          -90.275607,
          38.589165
        ]
      }
    },
    {
      "type": "Feature",
      "properties": {
        "title": "St. Mary of Perpetual Help (Moselle)",
        "link": "https://www.archstl.org/parish-directory/st-mary-of-perpetual-help-moselle",
        "phone": "636.451.4685",
        "address": "1587 Highway AM, Villa Ridge, MO 63089-2732"
      },
      "geometry": {
        "type": "Point",
        "coordinates": [
          -90.889121,
          38.453668
        ]
      }
    },
    {
      "type": "Feature",
      "properties": {
        "title": "St. Mary of Victories Chapel (St. Louis)",
        "link": "https://www.archstl.org/parish-directory/st-mary-of-victories-chapel-st-louis",
        "phone": "314.231.8101",
        "address": "744 South 3rd Street, St. Louis, MO 63102-1645"
      },
      "geometry": {
        "type": "Point",
        "coordinates": [
          -90.190277,
          38.618112
        ]
      }
    },
    {
      "type": "Feature",
      "properties": {
        "title": "St. Mary's Assumption Ukrainian Catholic Church",
        "link": "https://www.archstl.org/parish-directory/st-marys-assumption-ukrainian-catholic-church",
        "phone": "314.303.2893",
        "address": "11363 Oak Branch Dr., St. Louis, MO 63128"
      },
      "geometry": {
        "type": "Point",
        "coordinates": [
          -90.351925,
          38.519681
        ]
      }
    },
    {
      "type": "Feature",
      "properties": {
        "title": "St. Matthew the Apostle (St. Louis)",
        "link": "https://www.archstl.org/parish-directory/st-matthew-the-apostle-st-louis",
        "phone": "314.531.6443",
        "address": "2715 N. Sarah St., St. Louis, MO 63113-2940"
      },
      "geometry": {
        "type": "Point",
        "coordinates": [
          -90.232874,
          38.658852
        ]
      }
    },
    {
      "type": "Feature",
      "properties": {
        "title": "St. Matthias (Lemay)",
        "link": "https://www.archstl.org/parish-directory/st-matthias-lemay",
        "phone": "314.892.5109",
        "address": "796 Buckley Rd., St. Louis, MO 63125-5348"
      },
      "geometry": {
        "type": "Point",
        "coordinates": [
          -90.309091,
          38.511069
        ]
      }
    },
    {
      "type": "Feature",
      "properties": {
        "title": "St. Maurus (Biehle)",
        "link": "https://www.archstl.org/parish-directory/st-maurus-biehle",
        "phone": "573.788.2330",
        "address": "10198 Highway B, Perryville, MO 63775-5736"
      },
      "geometry": {
        "type": "Point",
        "coordinates": [
          -89.862749,
          37.727156
        ]
      }
    },
    {
      "type": "Feature",
      "properties": {
        "title": "St. Michael the Archangel (Shrewsbury)",
        "link": "https://www.archstl.org/parish-directory/st-michael-the-archangel-shrewsbury",
        "phone": "314.647.5611",
        "address": "7622 Sutherland Ave., St. Louis, MO 63119-2895"
      },
      "geometry": {
        "type": "Point",
        "coordinates": [
          -90.328866,
          38.59379
        ]
      }
    },
    {
      "type": "Feature",
      "properties": {
        "title": "St. Monica (Creve Coeur)",
        "link": "https://www.archstl.org/parish-directory/st-monica-creve-coeur",
        "phone": "314.434.4211",
        "address": "12136 Olive Blvd., St. Louis, MO 63141-6629"
      },
      "geometry": {
        "type": "Point",
        "coordinates": [
          -90.451677,
          38.672052
        ]
      }
    },
    {
      "type": "Feature",
      "properties": {
        "title": "St. Nicholas (St. Louis)",
        "link": "https://www.archstl.org/parish-directory/st-nicholas-st-louis",
        "phone": "314.231.2860",
        "address": "701 N. 18th St., St. Louis, MO 63103-1727"
      },
      "geometry": {
        "type": "Point",
        "coordinates": [
          -90.205231,
          38.634387
        ]
      }
    },
    {
      "type": "Feature",
      "properties": {
        "title": "St. Norbert (Florissant)",
        "link": "https://www.archstl.org/parish-directory/st-norbert-florissant",
        "phone": "314.831.3874",
        "address": "16455 New Halls Ferry Rd., Florissant, MO 63031-1199"
      },
      "geometry": {
        "type": "Point",
        "coordinates": [
          -90.319225,
          38.839289
        ]
      }
    },
    {
      "type": "Feature",
      "properties": {
        "title": "St. Patrick (Armagh)",
        "link": "https://www.archstl.org/parish-directory/st-patrick-armagh",
        "phone": "636.271.6038",
        "address": "C/O 1107 Summit Dr., Catawissa, MO 63015-1404"
      },
      "geometry": {
        "type": "Point",
        "coordinates": [
          -90.780631,
          38.404667
        ]
      }
    },
    {
      "type": "Feature",
      "properties": {
        "title": "St. Patrick (Wentzville)",
        "link": "https://www.archstl.org/parish-directory/st-patrick-wentzville",
        "phone": "636.332.9225",
        "address": "405 S. Church St., Wentzville, MO 63385-1606"
      },
      "geometry": {
        "type": "Point",
        "coordinates": [
          -90.855188,
          38.808626
        ]
      }
    },
    {
      "type": "Feature",
      "properties": {
        "title": "St. Paul (Berger)",
        "link": "https://www.archstl.org/parish-directory/st-paul-berger",
        "phone": "573.237.3372",
        "address": "C/O 603 Miller St., New Haven, MO 63068-1116"
      },
      "geometry": {
        "type": "Point",
        "coordinates": [
          -91.247283,
          38.558487
        ]
      }
    },
    {
      "type": "Feature",
      "properties": {
        "title": "St. Paul (Fenton)",
        "link": "https://www.archstl.org/parish-directory/st-paul-fenton",
        "phone": "636.343.1234",
        "address": "15 Forest Knoll Dr., Fenton, MO 63026-3105"
      },
      "geometry": {
        "type": "Point",
        "coordinates": [
          -90.448226,
          38.516838
        ]
      }
    },
    {
      "type": "Feature",
      "properties": {
        "title": "St. Paul (St. Paul)",
        "link": "https://www.archstl.org/parish-directory/st-paul-st-paul",
        "phone": "636.978.1900",
        "address": "1223 Church Rd., O'Fallon, MO 63366-5105"
      },
      "geometry": {
        "type": "Point",
        "coordinates": [
          -90.74505,
          38.862017
        ]
      }
    },
    {
      "type": "Feature",
      "properties": {
        "title": "St. Peter (Kirkwood)",
        "link": "https://www.archstl.org/parish-directory/st-peter-kirkwood",
        "phone": "314.966.8600",
        "address": "243 W. Argonne Dr., Kirkwood, MO 63122-4295"
      },
      "geometry": {
        "type": "Point",
        "coordinates": [
          -90.410224,
          38.581557
        ]
      }
    },
    {
      "type": "Feature",
      "properties": {
        "title": "St. Peter (St. Charles)",
        "link": "https://www.archstl.org/parish-directory/st-peter-st-charles",
        "phone": "636.946.6641",
        "address": "221 First Capitol Dr., St. Charles, MO 63301-3413"
      },
      "geometry": {
        "type": "Point",
        "coordinates": [
          -90.484355,
          38.779571
        ]
      }
    },
    {
      "type": "Feature",
      "properties": {
        "title": "St. Pius V (St. Louis)",
        "link": "https://www.archstl.org/parish-directory/st-pius-v-st-louis",
        "phone": "314.772.1525",
        "address": "3310 S. Grand Blvd., St. Louis, MO 63118-1089"
      },
      "geometry": {
        "type": "Point",
        "coordinates": [
          -90.242438,
          38.596984
        ]
      }
    },
    {
      "type": "Feature",
      "properties": {
        "title": "St. Raphael the Archangel (St. Louis)",
        "link": "https://www.archstl.org/parish-directory/st-raphael-the-archangel-st-louis",
        "phone": "314.352.8100",
        "address": "6047 Bishops Pl., St. Louis, MO 63109-3398"
      },
      "geometry": {
        "type": "Point",
        "coordinates": [
          -90.301877,
          38.57624
        ]
      }
    },
    {
      "type": "Feature",
      "properties": {
        "title": "St. Raymond's Cathedral",
        "link": "https://www.archstl.org/parish-directory/st-raymonds-cathedral",
        "phone": "314.621.0056",
        "address": "931 Lebanon Drive, St. Louis, MO 63104"
      },
      "geometry": {
        "type": "Point",
        "coordinates": [
          -90.19952,
          38.617743
        ]
      }
    },
    {
      "type": "Feature",
      "properties": {
        "title": "St. Richard (Creve Coeur)",
        "link": "https://www.archstl.org/parish-directory/st-richard-creve-coeur",
        "phone": "314.432.6224",
        "address": "11223 Schuetz Rd., St. Louis, MO 63146-4932"
      },
      "geometry": {
        "type": "Point",
        "coordinates": [
          -90.418127,
          38.685296
        ]
      }
    },
    {
      "type": "Feature",
      "properties": {
        "title": "St. Rita (Vinita Park)",
        "link": "https://www.archstl.org/parish-directory/st-rita-vinita-park",
        "phone": "314.428.4845",
        "address": "8240 Washington St., St. Louis, MO 63114-6298"
      },
      "geometry": {
        "type": "Point",
        "coordinates": [
          -90.3351,
          38.684414
        ]
      }
    },
    {
      "type": "Feature",
      "properties": {
        "title": "St. Robert Bellarmine (St. Charles)",
        "link": "https://www.archstl.org/parish-directory/st-robert-bellarmine-st-charles",
        "phone": "636.946.6799",
        "address": "1424 S. First Capitol Dr., St. Charles, MO 63303-3799"
      },
      "geometry": {
        "type": "Point",
        "coordinates": [
          -90.515622,
          38.774273
        ]
      }
    },
    {
      "type": "Feature",
      "properties": {
        "title": "St. Roch (St. Louis)",
        "link": "https://www.archstl.org/parish-directory/st-roch-st-louis",
        "phone": "314.721.6340",
        "address": "6052 Waterman Blvd., St. Louis, MO 63112-1399"
      },
      "geometry": {
        "type": "Point",
        "coordinates": [
          -90.296382,
          38.650217
        ]
      }
    },
    {
      "type": "Feature",
      "properties": {
        "title": "St. Rose of Lima (DeSoto)",
        "link": "https://www.archstl.org/parish-directory/st-rose-of-lima-desoto",
        "phone": "636.337.2212",
        "address": "504 S. Third St., Desoto, MO 63020-2097"
      },
      "geometry": {
        "type": "Point",
        "coordinates": [
          -90.557941,
          38.13488
        ]
      }
    },
    {
      "type": "Feature",
      "properties": {
        "title": "St. Rose of Lima (Silver Lake)",
        "link": "https://www.archstl.org/parish-directory/st-rose-of-lima-silver-lake",
        "phone": "573.547.4300",
        "address": "c/o 1010 Rosati Ct., Perryville, MO 63775-2319"
      },
      "geometry": {
        "type": "Point",
        "coordinates": [
          -89.862749,
          37.727156
        ]
      }
    },
    {
      "type": "Feature",
      "properties": {
        "title": "St. Rose Philippine Duchesne (Florissant)",
        "link": "https://www.archstl.org/parish-directory/st-rose-philippine-duchesne-florissant",
        "phone": "314.837.3410",
        "address": "1210 Paddock Dr., Florissant, MO 63033-3547"
      },
      "geometry": {
        "type": "Point",
        "coordinates": [
          -90.305888,
          38.794443
        ]
      }
    },
    {
      "type": "Feature",
      "properties": {
        "title": "St. Sabina (Florissant)",
        "link": "https://www.archstl.org/parish-directory/st-sabina-florissant",
        "phone": "314.837.1365",
        "address": "1365 Harkee Dr., Florissant, MO 63031-3434"
      },
      "geometry": {
        "type": "Point",
        "coordinates": [
          -90.343168,
          38.814277
        ]
      }
    },
    {
      "type": "Feature",
      "properties": {
        "title": "St. Simon the Apostle (Green Park)",
        "link": "https://www.archstl.org/parish-directory/st-simon-the-apostle-green-park",
        "phone": "314.842.3848",
        "address": "11011 Mueller Rd., St. Louis, MO 63123-6997"
      },
      "geometry": {
        "type": "Point",
        "coordinates": [
          -90.345827,
          38.524192
        ]
      }
    },
    {
      "type": "Feature",
      "properties": {
        "title": "St. Stephen (Richwoods)",
        "link": "https://www.archstl.org/parish-directory/st-stephen-richwoods",
        "phone": "573.678.2207",
        "address": "11514 Highway A, P.O. Box 233, Richwoods, MO 63071-0233"
      },
      "geometry": {
        "type": "Point",
        "coordinates": [
          -90.82819,
          38.16033
        ]
      }
    },
    {
      "type": "Feature",
      "properties": {
        "title": "St. Stephen Protomartyr (St. Louis)",
        "link": "https://www.archstl.org/parish-directory/st-stephen-protomartyr-st-louis",
        "phone": "314.481.1133",
        "address": "3949 Wilmington Ave., St. Louis, MO 63116-3291"
      },
      "geometry": {
        "type": "Point",
        "coordinates": [
          -90.262861,
          38.569646
        ]
      }
    },
    {
      "type": "Feature",
      "properties": {
        "title": "St. Theodore (Flint Hill)",
        "link": "https://www.archstl.org/parish-directory/st-theodore-flint-hill",
        "phone": "636.332.9269",
        "address": "5085 Hwy P, Wentzville, MO 63385"
      },
      "geometry": {
        "type": "Point",
        "coordinates": [
          -90.852228,
          38.79067
        ]
      }
    },
    {
      "type": "Feature",
      "properties": {
        "title": "St. Vincent de Paul (Dutzow)",
        "link": "https://www.archstl.org/parish-directory/st-vincent-de-paul-dutzow",
        "phone": "636.433.2678",
        "address": "13497 S. State Highway 94, Marthasville, MO 63357-2686"
      },
      "geometry": {
        "type": "Point",
        "coordinates": [
          -90.983629,
          38.59278
        ]
      }
    },
    {
      "type": "Feature",
      "properties": {
        "title": "St. Vincent de Paul (Perryville)",
        "link": "https://www.archstl.org/parish-directory/st-vincent-de-paul-perryville",
        "phone": "573.547.4300",
        "address": "1010 Rosati Ct., Perryville, MO 63775-2319"
      },
      "geometry": {
        "type": "Point",
        "coordinates": [
          -89.875808,
          37.724644
        ]
      }
    },
    {
      "type": "Feature",
      "properties": {
        "title": "St. Vincent de Paul (St. Louis)",
        "link": "https://www.archstl.org/parish-directory/st-vincent-de-paul-st-louis",
        "phone": "314.231.9328",
        "address": "1408 S. Tenth St., St. Louis, MO 63104-3725"
      },
      "geometry": {
        "type": "Point",
        "coordinates": [
          -90.201465,
          38.612907
        ]
      }
    },
    {
      "type": "Feature",
      "properties": {
        "title": "St. Wenceslaus (St. Louis)",
        "link": "https://www.archstl.org/parish-directory/st-wenceslaus-st-louis",
        "phone": "314.865.1020",
        "address": "3014 Oregon Ave., St. Louis, MO 63118-1412"
      },
      "geometry": {
        "type": "Point",
        "coordinates": [
          -90.229452,
          38.600673
        ]
      }
    },
    {
      "type": "Feature",
      "properties": {
        "title": "Ste. Genevieve (Ste. Genevieve)",
        "link": "https://www.archstl.org/parish-directory/ste-genevieve-ste-genevieve",
        "phone": "573.883.2731",
        "address": "20 N. Fourth St., Ste. Genevieve, MO 63670-1697"
      },
      "geometry": {
        "type": "Point",
        "coordinates": [
          -90.047575,
          37.979658
        ]
      }
    },
    {
      "type": "Feature",
      "properties": {
        "title": "Ste. Genevieve du Bois (Warson Woods)",
        "link": "https://www.archstl.org/parish-directory/ste-genevieve-du-bois-warson-woods",
        "phone": "314.966.3780",
        "address": "1575 N. Woodlawn Ave., St. Louis, MO 63122-1462"
      },
      "geometry": {
        "type": "Point",
        "coordinates": [
          -90.398034,
          38.61004
        ]
      }
    },
    {
      "type": "Feature",
      "properties": {
        "title": "Sts. Joachim and Ann (St. Charles)",
        "link": "https://www.archstl.org/parish-directory/sts-joachim-and-ann-st-charles",
        "phone": "636.441.7503",
        "address": "4112 McClay Rd., St. Charles, MO 63304-7918"
      },
      "geometry": {
        "type": "Point",
        "coordinates": [
          -90.599166,
          38.755437
        ]
      }
    },
    {
      "type": "Feature",
      "properties": {
        "title": "Sts. Mary and Joseph Chapel (St. Louis)",
        "link": "https://www.archstl.org/parish-directory/sts-mary-and-joseph-chapel-st-louis",
        "phone": "314.481.1133",
        "address": "C/O 3949 Wilmington Ave., St. Louis, MO 63116-3291"
      },
      "geometry": {
        "type": "Point",
        "coordinates": [
          -90.268563,
          38.581401
        ]
      }
    },
    {
      "type": "Feature",
      "properties": {
        "title": "Sts. Peter and Paul (St. Louis)",
        "link": "https://www.archstl.org/parish-directory/sts-peter-and-paul-st-louis",
        "phone": "314.231.9923",
        "address": "1919 S. Seventh St., St. Louis, MO 63104-4029"
      },
      "geometry": {
        "type": "Point",
        "coordinates": [
          -90.20301,
          38.607295
        ]
      }
    },
    {
      "type": "Feature",
      "properties": {
        "title": "Sts. Philip & James (River aux Vases)",
        "link": "https://www.archstl.org/parish-directory/sts-philip-james-river-aux-vases",
        "phone": "573.883.3925",
        "address": "18411 RAV Church Rd., Ste. Genevieve, MO 63670-9147"
      },
      "geometry": {
        "type": "Point",
        "coordinates": [
          -90.041779,
          37.981442
        ]
      }
    },
    {
      "type": "Feature",
      "properties": {
        "title": "Sts. Teresa & Bridget (St. Louis)",
        "link": "https://www.archstl.org/parish-directory/sts-teresa-bridget-st-louis",
        "phone": "314.371.1190",
        "address": "3636 N. Market St., St. Louis, MO 63113-3606"
      },
      "geometry": {
        "type": "Point",
        "coordinates": [
          -90.225351,
          38.651653
        ]
      }
    }
  ]
}